District	Latitude	Longitude	k13-all350all
Biharamulo	-2.81081	31.6887	0 (0/19)
Bukoba DC	-1.425575	31.5601957	0 (0/34)
Karagwe	-1.7191994	31.024272	0.0889 (12/135)
Kyerwa	-1.3694933	30.8244814	0.0183 (2/109)
Misenyi	-1.25452	31.4204	0 (0/24)
Muleba	-1.8001842	31.5414111	0 (0/164)
Ngara	-2.4965976	30.6161532	0.042 (6/143)
overall			0.0318 (20/628)
